{"type": "FeatureCollection", "crs": {"type": "name", "properties": {"name": "EPSG:4326"}}, "features": [{"type": "Feature", "properties": {"id": "1", "name": "B\u00fcrkliplatz (nicht rollstuhlg\u00e4ngig)", "address": "B\u00fcrkliplatz 1", "category": "WC (nicht rollstuhlg\u00e4ngig)", "hours": "Ganzj\u00e4hrig 6.30-21.45 Uhr ge\u00f6ffnet. Im Winter nur bis 20.45 Uhr.", "fee": "Geb\u00fchrenfrei", "accessible": true, "elevation": 408.2}, "geometry": {"coordinates": [8.540655, 47.36665], "type": "Point"}}, {"type": "Feature", "properties": {"id": "2", "name": "Kollerwiese (nicht rollstuhlg\u00e4ngig)", "address": "Schlossgasse 21", "category": "WC (nicht rollstuhlg\u00e4ngig)", "hours": "24 h", "fee": "Geb\u00fchrenfrei", "accessible": true, "elevation": 415.0}, "geometry": {"coordinates": [8.519114, 47.368598], "type": "Point"}}, {"type": "Feature", "properties": {"id": "3", "name": "Wassersch\u00f6pfi (nicht rollstuhlg\u00e4ngig)", "address": "Friesenbergstrasse 130", "category": "WC (nicht rollstuhlg\u00e4ngig)", "hours": "24 h", "fee": "Geb\u00fchrenfrei.", "accessible": true, "elevation": 438.3}, "geometry": {"coordinates": [8.508398, 47.365064], "type": "Point"}}, {"type": "Feature", "properties": {"id": "4", "name": "Milit\u00e4rstrasse (Pissoir)", "address": "Milit\u00e4rstrasse 45", "category": "WC (nicht rollstuhlg\u00e4ngig)", "hours": "24 h", "fee": "Geb\u00fchrenfrei", "accessible": true, "elevation": 408.8}, "geometry": {"coordinates": [8.531515, 47.377423], "type": "Point"}}, {"type": "Feature", "properties": {"id": "5", "name": "Zeughausstrasse (Pissoir)", "address": "Zeughausstrasse 56", "category": "WC (nicht rollstuhlg\u00e4ngig)", "hours": "24 h", "fee": "Geb\u00fchrenfrei", "accessible": true, "elevation": 409.5}, "geometry": {"coordinates": [8.529743, 47.376243], "type": "Point"}}, {"type": "Feature", "properties": {"id": "6", "name": "B\u00fcrkliplatz (Pissoir)", "address": "B\u00fcrkliplatz 5", "category": "WC (nicht rollstuhlg\u00e4ngig)", "hours": "24h", "fee": "Geb\u00fchrenfrei", "accessible": true, "elevation": 408.4}, "geometry": {"coordinates": [8.541306, 47.366752], "type": "Point"}}, {"type": "Feature", "properties": {"id": "7", "name": "Hafen Tiefenbrunnen (nicht rollstuhlg\u00e4ngig)", "address": "Bellerivestrasse 268", "category": "WC (nicht rollstuhlg\u00e4ngig)", "hours": "24 h. Ge\u00f6ffnet von M\u00e4rz bis Oktober.", "fee": "Geb\u00fchrenfrei", "accessible": true, "elevation": 408.0}, "geometry": {"coordinates": [8.562812, 47.346845], "type": "Point"}}, {"type": "Feature", "properties": {"id": "8", "name": "Platzspitz (nicht rollstuhlg\u00e4ngig)", "address": "Platzpromenade 9", "category": "WC (nicht rollstuhlg\u00e4ngig)", "hours": "W\u00e4hrend der \u00d6ffnungszeiten des Parks von M\u00e4rz bis Oktober.", "fee": "Geb\u00fchrenfrei", "accessible": true, "elevation": 405.3}, "geometry": {"coordinates": [8.539977, 47.381264], "type": "Point"}}, {"type": "Feature", "properties": {"id": "9", "name": "Z\u00fcrichhorn, Lakeside (nicht rollstuhlg\u00e4ngig)", "address": "Bellerivestrasse 170", "category": "WC (nicht rollstuhlg\u00e4ngig)", "hours": "Nachts geschlossen.", "fee": "Geb\u00fchr Fr. 1.--. Pissoir gratis.", "accessible": true, "elevation": 407.8}, "geometry": {"coordinates": [8.553846, 47.352922], "type": "Point"}}, {"type": "Feature", "properties": {"id": "10", "name": "Hasenrain (nicht rollstuhlg\u00e4ngig)", "address": "Albisriederstrasse 516", "category": "WC (nicht rollstuhlg\u00e4ngig)", "hours": "24 Std. von M\u00e4rz bis Oktober.", "fee": "Geb\u00fchrenfrei", "accessible": true, "elevation": 408}, "geometry": {"coordinates": [8.47814, 47.374965], "type": "Point"}}, {"type": "Feature", "properties": {"id": "11", "name": "Buchholz (nicht rollstuhlg\u00e4ngig)", "address": "Buchholzstrasse 53c", "category": "WC (nicht rollstuhlg\u00e4ngig)", "hours": "24 h. M\u00e4rz bis Oktober.", "fee": "Geb\u00fchrenfrei", "accessible": true, "elevation": 583.1}, "geometry": {"coordinates": [8.584912, 47.361524], "type": "Point"}}, {"type": "Feature", "properties": {"id": "12", "name": "Wipkingerpark (nicht rollstuhlg\u00e4ngig)", "address": "Breitensteinstrasse 17a", "category": "WC (nicht rollstuhlg\u00e4ngig)", "hours": "24h", "fee": "Geb\u00fchrenfrei", "accessible": true, "elevation": 406.0}, "geometry": {"coordinates": [8.521788, 47.392707], "type": "Point"}}, {"type": "Feature", "properties": {"id": "13", "name": "Blatterwiese - Spielplatz (nicht rollstuhlg\u00e4ngig)", "address": "Bellerivestrasse 60", "category": "WC (nicht rollstuhlg\u00e4ngig)", "hours": "24 h", "fee": "Geb\u00fchrenfrei", "accessible": true, "elevation": 409.3}, "geometry": {"coordinates": [8.551418, 47.355797], "type": "Point"}}, {"type": "Feature", "properties": {"id": "14", "name": "Wahlenpark (nicht rollstuhlg\u00e4ngig)", "address": "Fritz-Heeb-Weg 13", "category": "WC (nicht rollstuhlg\u00e4ngig)", "hours": "24 h", "fee": "Geb\u00fchrenfrei", "accessible": true, "elevation": 439.2}, "geometry": {"coordinates": [8.540656, 47.415358], "type": "Point"}}, {"type": "Feature", "properties": {"id": "15", "name": "Helvetiaplatz (nicht rollstuhlg\u00e4ngig)", "address": "Ankerstrasse 101", "category": "WC (nicht rollstuhlg\u00e4ngig)", "hours": "24h", "fee": "Geb\u00fchrenfrei.", "accessible": true, "elevation": 410.2}, "geometry": {"coordinates": [8.527302, 47.376015], "type": "Point"}}, {"type": "Feature", "properties": {"id": "16", "name": "Opernhausparking (nicht rollstuhlg\u00e4ngig)", "address": "Theaterstrasse 9", "category": "WC (nicht rollstuhlg\u00e4ngig)", "hours": "24h", "fee": "Geb\u00fchrenfrei", "accessible": true, "elevation": 408.5}, "geometry": {"coordinates": [8.546756, 47.365872], "type": "Point"}}, {"type": "Feature", "properties": {"id": "17", "name": "Arboretum (nicht rollstuhlg\u00e4ngig)", "address": "General-Guisan-Quai 37", "category": "WC (nicht rollstuhlg\u00e4ngig)", "hours": "24h", "fee": "Geb\u00fchrenfrei.", "accessible": true, "elevation": 407.8}, "geometry": {"coordinates": [8.535602, 47.36364], "type": "Point"}}, {"type": "Feature", "properties": {"id": "18", "name": "Hafen Wollishofen (nicht rollstuhlg\u00e4ngig)", "address": "Seestrasse 495b", "category": "WC (nicht rollstuhlg\u00e4ngig)", "hours": "24h", "fee": "Geb\u00fchrenfrei", "accessible": true, "elevation": 408}, "geometry": {"coordinates": [8.539588, 47.338055], "type": "Point"}}, {"type": "Feature", "properties": {"id": "19", "name": "Glaubtenstrasse (nicht rollstuhlg\u00e4ngig)", "address": "Wehntalerstrasse 384", "category": "WC (nicht rollstuhlg\u00e4ngig)", "hours": "24 h", "fee": "Geb\u00fchrenfrei", "accessible": true, "elevation": 462.4}, "geometry": {"coordinates": [8.519311, 47.414247], "type": "Point"}}, {"type": "Feature", "properties": {"id": "20", "name": "Aegerten (nicht rollstuhlg\u00e4ngig)", "address": "Zurlindenstrasse 22", "category": "WC (nicht rollstuhlg\u00e4ngig)", "hours": "24 h", "fee": "Geb\u00fchrenfrei", "accessible": true, "elevation": 414.2}, "geometry": {"coordinates": [8.522288, 47.368434], "type": "Point"}}, {"type": "Feature", "properties": {"id": "21", "name": "Werdh\u00f6lzli (nicht rollstuhlg\u00e4ngig)", "address": "B\u00e4ndlistrasse 90", "category": "WC (nicht rollstuhlg\u00e4ngig)", "hours": "24 h", "fee": "Geb\u00fchrenfrei", "accessible": true, "elevation": 396.1}, "geometry": {"coordinates": [8.482085, 47.397921], "type": "Point"}}, {"type": "Feature", "properties": {"id": "22", "name": "Landiwiese (nicht rollstuhlg\u00e4ngig)", "address": "Mythenquai 309", "category": "WC (nicht rollstuhlg\u00e4ngig)", "hours": "24h", "fee": "Geb\u00fchrenfrei", "accessible": true, "elevation": 408.9}, "geometry": {"coordinates": [8.534558, 47.35022], "type": "Point"}}, {"type": "Feature", "properties": {"id": "23", "name": "Carparkplatz (nicht rollstuhlg\u00e4ngig)", "address": "Carparkplatz, Ausstellungsstrasse bei Nr. 15", "category": "WC (nicht rollstuhlg\u00e4ngig)", "hours": "24 h", "fee": "Fr. 1.--.", "accessible": true, "elevation": 406.9}, "geometry": {"coordinates": [8.537404, 47.381046], "type": "Point"}}, {"type": "Feature", "properties": {"id": "24", "name": "Obere Langstrasse (Pissoir)", "address": "Langstrasse 30", "category": "WC (nicht rollstuhlg\u00e4ngig)", "hours": "24 h", "fee": "Geb\u00fchrenfrei", "accessible": true, "elevation": 410.8}, "geometry": {"coordinates": [8.525186, 47.375513], "type": "Point"}}, {"type": "Feature", "properties": {"id": "25", "name": "Paradeplatz (nicht rollstuhlg\u00e4ngig)", "address": "Paradeplatz 11", "category": "WC (nicht rollstuhlg\u00e4ngig)", "hours": "Mon.-Sam. 06.30 - 20.45 Uhr, Son. 09:30 - 17:45 Uhr", "fee": "Geb\u00fchr Fr. 1.--..", "accessible": true, "elevation": 409.2}, "geometry": {"coordinates": [8.538918, 47.369716], "type": "Point"}}]}